uuid_l2,date_time,lon,lat,heading,pitch,roll,speed,sol_zen,sol_azi,boat_raa,temperature,salinity_practical,salinity_absolute,altitude_mu,altitude_sd,bottom_elevation_mu,bottom_elevation_sd,plant_height_mu,plant_height_sd,vsf_700,chl,fdom,z,wavelength,rrs_estimate,rrs_unc,lw_estimate,lw_unc,klu_estimate,klu_unc
638945e6-1c9b-11f1-809e-3cf011fcb4b7,2022-07-05 12:43:54,-64.36206866666667,49.80899345833333,309.44714285714286,3.8842857142857143,-3.0185714285714287,3.5166666666666666,50.181441495940405,101.8461181403572,152.39936574525208,7.2126,30.269878920019035,30.41392090190769,NA,NA,NA,NA,NA,NA,0.0015834949,0.3576415,4.7222865,NA,356,6.421350300203845e-4,1.1200914892116975e-4,0.02166081755271882,0.0037360716902983477,2.0477730204963582,0.6038415001295186
638945e6-1c9b-11f1-809e-3cf011fcb4b7,2022-07-05 12:43:54,-64.36206866666667,49.80899345833333,309.44714285714286,3.8842857142857143,-3.0185714285714287,3.5166666666666666,50.181441495940405,101.8461181403572,152.39936574525208,7.2126,30.269878920019035,30.41392090190769,NA,NA,NA,NA,NA,NA,0.0015834949,0.3576415,4.7222865,NA,359,6.195496943890343e-4,9.923330704285542e-5,0.021476311484913333,0.003373726497119835,1.7443343481502982,0.5829399908925054
638945e6-1c9b-11f1-809e-3cf011fcb4b7,2022-07-05 12:43:54,-64.36206866666667,49.80899345833333,309.44714285714286,3.8842857142857143,-3.0185714285714287,3.5166666666666666,50.181441495940405,101.8461181403572,152.39936574525208,7.2126,30.269878920019035,30.41392090190769,NA,NA,NA,NA,NA,NA,0.0015834949,0.3576415,4.7222865,NA,362,6.797627973842036e-4,1.1207855247082218e-4,0.02548069103731601,0.004156490121971614,1.8425740721904276,0.5877932964049596
638945e6-1c9b-11f1-809e-3cf011fcb4b7,2022-07-05 12:43:54,-64.36206866666667,49.80899345833333,309.44714285714286,3.8842857142857143,-3.0185714285714287,3.5166666666666666,50.181441495940405,101.8461181403572,152.39936574525208,7.2126,30.269878920019035,30.41392090190769,NA,NA,NA,NA,NA,NA,0.0015834949,0.3576415,4.7222865,NA,365,7.298848193489062e-4,1.2424153721876248e-4,0.02982166932132962,0.005015258240927091,1.8839021721680758,0.5770400096673235
638945e6-1c9b-11f1-809e-3cf011fcb4b7,2022-07-05 12:43:54,-64.36206866666667,49.80899345833333,309.44714285714286,3.8842857142857143,-3.0185714285714287,3.5166666666666666,50.181441495940405,101.8461181403572,152.39936574525208,7.2126,30.269878920019035,30.41392090190769,NA,NA,NA,NA,NA,NA,0.0015834949,0.3576415,4.7222865,NA,368,6.71579347453181e-4,1.1153746381151473e-4,0.028688002732893646,0.004641252304297463,1.4541065467994467,0.5776162534271131
638945e6-1c9b-11f1-809e-3cf011fcb4b7,2022-07-05 12:43:54,-64.36206866666667,49.80899345833333,309.44714285714286,3.8842857142857143,-3.0185714285714287,3.5166666666666666,50.181441495940405,101.8461181403572,152.39936574525208,7.2126,30.269878920019035,30.41392090190769,NA,NA,NA,NA,NA,NA,0.0015834949,0.3576415,4.7222865,NA,371,6.660017909227488e-4,1.1261817094129707e-4,0.028577561344784057,0.0047426327803878655,1.2525440427097787,0.5937879514951498
638945e6-1c9b-11f1-809e-3cf011fcb4b7,2022-07-05 12:43:54,-64.36206866666667,49.80899345833333,309.44714285714286,3.8842857142857143,-3.0185714285714287,3.5166666666666666,50.181441495940405,101.8461181403572,152.39936574525208,7.2126,30.269878920019035,30.41392090190769,NA,NA,NA,NA,NA,NA,0.0015834949,0.3576415,4.7222865,NA,374,7.855413661334309e-4,1.4613422210176685e-4,0.03378807655818249,0.006263023425134574,1.5571718741030753,0.62725742280032
638945e6-1c9b-11f1-809e-3cf011fcb4b7,2022-07-05 12:43:54,-64.36206866666667,49.80899345833333,309.44714285714286,3.8842857142857143,-3.0185714285714287,3.5166666666666666,50.181441495940405,101.8461181403572,152.39936574525208,7.2126,30.269878920019035,30.41392090190769,NA,NA,NA,NA,NA,NA,0.0015834949,0.3576415,4.7222865,NA,377,7.837493758380662e-4,1.2821527406572773e-4,0.03414600939205694,0.00551732139340718,1.3646496251727462,0.5446808111323834
638945e6-1c9b-11f1-809e-3cf011fcb4b7,2022-07-05 12:43:54,-64.36206866666667,49.80899345833333,309.44714285714286,3.8842857142857143,-3.0185714285714287,3.5166666666666666,50.181441495940405,101.8461181403572,152.39936574525208,7.2126,30.269878920019035,30.41392090190769,NA,NA,NA,NA,NA,NA,0.0015834949,0.3576415,4.7222865,NA,380,8.118211966056822e-4,1.270137221340024e-4,0.034931250688995746,0.005426390587179472,1.2469698427040237,0.5456124638088108
638945e6-1c9b-11f1-809e-3cf011fcb4b7,2022-07-05 12:43:54,-64.36206866666667,49.80899345833333,309.44714285714286,3.8842857142857143,-3.0185714285714287,3.5166666666666666,50.181441495940405,101.8461181403572,152.39936574525208,7.2126,30.269878920019035,30.41392090190769,NA,NA,NA,NA,NA,NA,0.0015834949,0.3576415,4.7222865,NA,383,8.892571085462934e-4,1.5114613677139204e-4,0.03636346159216476,0.0061143388778065145,1.3431971991081948,0.5719170079081429
638945e6-1c9b-11f1-809e-3cf011fcb4b7,2022-07-05 12:43:54,-64.36206866666667,49.80899345833333,309.44714285714286,3.8842857142857143,-3.0185714285714287,3.5166666666666666,50.181441495940405,101.8461181403572,152.39936574525208,7.2126,30.269878920019035,30.41392090190769,NA,NA,NA,NA,NA,NA,0.0015834949,0.3576415,4.7222865,NA,386,9.38535978364843e-4,1.461988230920962e-4,0.0388811879594803,0.005913343078719035,1.2671028173879078,0.5131203339466847
638945e6-1c9b-11f1-809e-3cf011fcb4b7,2022-07-05 12:43:54,-64.36206866666667,49.80899345833333,309.44714285714286,3.8842857142857143,-3.0185714285714287,3.5166666666666666,50.181441495940405,101.8461181403572,152.39936574525208,7.2126,30.269878920019035,30.41392090190769,NA,NA,NA,NA,NA,NA,0.0015834949,0.3576415,4.7222865,NA,389,9.650440023758458e-4,1.45369631081179e-4,0.041863979180657665,0.006097913206605717,1.1686856505069725,0.512060571008435
638945e6-1c9b-11f1-809e-3cf011fcb4b7,2022-07-05 12:43:54,-64.36206866666667,49.80899345833333,309.44714285714286,3.8842857142857143,-3.0185714285714287,3.5166666666666666,50.181441495940405,101.8461181403572,152.39936574525208,7.2126,30.269878920019035,30.41392090190769,NA,NA,NA,NA,NA,NA,0.0015834949,0.3576415,4.7222865,NA,392,0.0010260227581660385,1.4753854450434803e-4,0.04557080248652637,0.006388312565335853,1.16767984336467,0.5027023061842463
638945e6-1c9b-11f1-809e-3cf011fcb4b7,2022-07-05 12:43:54,-64.36206866666667,49.80899345833333,309.44714285714286,3.8842857142857143,-3.0185714285714287,3.5166666666666666,50.181441495940405,101.8461181403572,152.39936574525208,7.2126,30.269878920019035,30.41392090190769,NA,NA,NA,NA,NA,NA,0.0015834949,0.3576415,4.7222865,NA,395,0.0010624108634901372,1.4699367204066034e-4,0.05097363434352736,0.006786430651762809,1.1028264008174058,0.47405236641198256
638945e6-1c9b-11f1-809e-3cf011fcb4b7,2022-07-05 12:43:54,-64.36206866666667,49.80899345833333,309.44714285714286,3.8842857142857143,-3.0185714285714287,3.5166666666666666,50.181441495940405,101.8461181403572,152.39936574525208,7.2126,30.269878920019035,30.41392090190769,NA,NA,NA,NA,NA,NA,0.0015834949,0.3576415,4.7222865,NA,398,0.001093823835049325,1.4770549458501656e-4,0.06095682195726136,0.008050740425894225,1.0463087120418813,0.45665979971112614
638945e6-1c9b-11f1-809e-3cf011fcb4b7,2022-07-05 12:43:54,-64.36206866666667,49.80899345833333,309.44714285714286,3.8842857142857143,-3.0185714285714287,3.5166666666666666,50.181441495940405,101.8461181403572,152.39936574525208,7.2126,30.269878920019035,30.41392090190769,NA,NA,NA,NA,NA,NA,0.0015834949,0.3576415,4.7222865,NA,401,0.0011452514921955056,1.5141523876139554e-4,0.07374190359891482,0.009540405248334402,1.0292702948292907,0.4485346992765181
638945e6-1c9b-11f1-809e-3cf011fcb4b7,2022-07-05 12:43:54,-64.36206866666667,49.80899345833333,309.44714285714286,3.8842857142857143,-3.0185714285714287,3.5166666666666666,50.181441495940405,101.8461181403572,152.39936574525208,7.2126,30.269878920019035,30.41392090190769,NA,NA,NA,NA,NA,NA,0.0015834949,0.3576415,4.7222865,NA,404,0.001187358688740975,1.5735590293692757e-4,0.08305328686972778,0.01079605304603247,1.0247667698152545,0.46678355067960814
638945e6-1c9b-11f1-809e-3cf011fcb4b7,2022-07-05 12:43:54,-64.36206866666667,49.80899345833333,309.44714285714286,3.8842857142857143,-3.0185714285714287,3.5166666666666666,50.181441495940405,101.8461181403572,152.39936574525208,7.2126,30.269878920019035,30.41392090190769,NA,NA,NA,NA,NA,NA,0.0015834949,0.3576415,4.7222865,NA,407,0.0012261936909542387,1.605177135350109e-4,0.08795909878004088,0.011276586001652274,0.9670797515936588,0.4577184756560653
638945e6-1c9b-11f1-809e-3cf011fcb4b7,2022-07-05 12:43:54,-64.36206866666667,49.80899345833333,309.44714285714286,3.8842857142857143,-3.0185714285714287,3.5166666666666666,50.181441495940405,101.8461181403572,152.39936574525208,7.2126,30.269878920019035,30.41392090190769,NA,NA,NA,NA,NA,NA,0.0015834949,0.3576415,4.7222865,NA,410,0.001296516747780519,1.5880310131712643e-4,0.09525964397092888,0.011342541558354142,0.967937259113519,0.4293710488240773
638945e6-1c9b-11f1-809e-3cf011fcb4b7,2022-07-05 12:43:54,-64.36206866666667,49.80899345833333,309.44714285714286,3.8842857142857143,-3.0185714285714287,3.5166666666666666,50.181441495940405,101.8461181403572,152.39936574525208,7.2126,30.269878920019035,30.41392090190769,NA,NA,NA,NA,NA,NA,0.0015834949,0.3576415,4.7222865,NA,413,0.0013323894884864824,1.6273517241321113e-4,0.10034057815001352,0.011971034895283566,0.8922407665779808,0.4187428947232441
638945e6-1c9b-11f1-809e-3cf011fcb4b7,2022-07-05 12:43:54,-64.36206866666667,49.80899345833333,309.44714285714286,3.8842857142857143,-3.0185714285714287,3.5166666666666666,50.181441495940405,101.8461181403572,152.39936574525208,7.2126,30.269878920019035,30.41392090190769,NA,NA,NA,NA,NA,NA,0.0015834949,0.3576415,4.7222865,NA,416,0.00139673012982916,1.659103661263301e-4,0.10650796194167508,0.01210556490050449,0.8613848629991172,0.40127979616171827
638945e6-1c9b-11f1-809e-3cf011fcb4b7,2022-07-05 12:43:54,-64.36206866666667,49.80899345833333,309.44714285714286,3.8842857142857143,-3.0185714285714287,3.5166666666666666,50.181441495940405,101.8461181403572,152.39936574525208,7.2126,30.269878920019035,30.41392090190769,NA,NA,NA,NA,NA,NA,0.0015834949,0.3576415,4.7222865,NA,419,0.0014468588923282647,1.6431991918018757e-4,0.1100897921798446,0.011949719265308616,0.8058377301751984,0.38650594704476554
638945e6-1c9b-11f1-809e-3cf011fcb4b7,2022-07-05 12:43:54,-64.36206866666667,49.80899345833333,309.44714285714286,3.8842857142857143,-3.0185714285714287,3.5166666666666666,50.181441495940405,101.8461181403572,152.39936574525208,7.2126,30.269878920019035,30.41392090190769,NA,NA,NA,NA,NA,NA,0.0015834949,0.3576415,4.7222865,NA,422,0.0015133362699123502,1.6670302156201035e-4,0.11428982560828985,0.011880449845376334,0.7640709562027619,0.3735423480410374
638945e6-1c9b-11f1-809e-3cf011fcb4b7,2022-07-05 12:43:54,-64.36206866666667,49.80899345833333,309.44714285714286,3.8842857142857143,-3.0185714285714287,3.5166666666666666,50.181441495940405,101.8461181403572,152.39936574525208,7.2126,30.269878920019035,30.41392090190769,NA,NA,NA,NA,NA,NA,0.0015834949,0.3576415,4.7222865,NA,425,0.001577018123016107,1.6912360262972485e-4,0.1160308944054762,0.011882041745122546,0.7249509040138118,0.36058223002351036
638945e6-1c9b-11f1-809e-3cf011fcb4b7,2022-07-05 12:43:54,-64.36206866666667,49.80899345833333,309.44714285714286,3.8842857142857143,-3.0185714285714287,3.5166666666666666,50.181441495940405,101.8461181403572,152.39936574525208,7.2126,30.269878920019035,30.41392090190769,NA,NA,NA,NA,NA,NA,0.0015834949,0.3576415,4.7222865,NA,428,0.0016377578560870718,1.7092804747853213e-4,0.11762378739420212,0.011610392505656217,0.6852258506739954,0.35113832966079
638945e6-1c9b-11f1-809e-3cf011fcb4b7,2022-07-05 12:43:54,-64.36206866666667,49.80899345833333,309.44714285714286,3.8842857142857143,-3.0185714285714287,3.5166666666666666,50.181441495940405,101.8461181403572,152.39936574525208,7.2126,30.269878920019035,30.41392090190769,NA,NA,NA,NA,NA,NA,0.0015834949,0.3576415,4.7222865,NA,431,0.0017058377151361389,1.7040152677820475e-4,0.12344176269331962,0.011623015874718949,0.6392516933435677,0.332235233104831
638945e6-1c9b-11f1-809e-3cf011fcb4b7,2022-07-05 12:43:54,-64.36206866666667,49.80899345833333,309.44714285714286,3.8842857142857143,-3.0185714285714287,3.5166666666666666,50.181441495940405,101.8461181403572,152.39936574525208,7.2126,30.269878920019035,30.41392090190769,NA,NA,NA,NA,NA,NA,0.0015834949,0.3576415,4.7222865,NA,434,0.0017949623251128889,1.7128451780423467e-4,0.13586686578206048,0.012150215276527265,0.6403942697641745,0.3251556290291496
638945e6-1c9b-11f1-809e-3cf011fcb4b7,2022-07-05 12:43:54,-64.36206866666667,49.80899345833333,309.44714285714286,3.8842857142857143,-3.0185714285714287,3.5166666666666666,50.181441495940405,101.8461181403572,152.39936574525208,7.2126,30.269878920019035,30.41392090190769,NA,NA,NA,NA,NA,NA,0.0015834949,0.3576415,4.7222865,NA,437,0.0018651232160568983,1.6881809740675976e-4,0.14869577124408268,0.012626330311193382,0.5975825242499104,0.30812111860156005
638945e6-1c9b-11f1-809e-3cf011fcb4b7,2022-07-05 12:43:54,-64.36206866666667,49.80899345833333,309.44714285714286,3.8842857142857143,-3.0185714285714287,3.5166666666666666,50.181441495940405,101.8461181403572,152.39936574525208,7.2126,30.269878920019035,30.41392090190769,NA,NA,NA,NA,NA,NA,0.0015834949,0.3576415,4.7222865,NA,440,0.001960895023736568,1.710799544134075e-4,0.16311746156289203,0.013402114458278326,0.5937628604917371,0.29555098427817733
638945e6-1c9b-11f1-809e-3cf011fcb4b7,2022-07-05 12:43:54,-64.36206866666667,49.80899345833333,309.44714285714286,3.8842857142857143,-3.0185714285714287,3.5166666666666666,50.181441495940405,101.8461181403572,152.39936574525208,7.2126,30.269878920019035,30.41392090190769,NA,NA,NA,NA,NA,NA,0.0015834949,0.3576415,4.7222865,NA,443,0.002017351891562693,1.688520276973642e-4,0.17471194154921915,0.013532232788149806,0.5190699547515676,0.289639214001932
638945e6-1c9b-11f1-809e-3cf011fcb4b7,2022-07-05 12:43:54,-64.36206866666667,49.80899345833333,309.44714285714286,3.8842857142857143,-3.0185714285714287,3.5166666666666666,50.181441495940405,101.8461181403572,152.39936574525208,7.2126,30.269878920019035,30.41392090190769,NA,NA,NA,NA,NA,NA,0.0015834949,0.3576415,4.7222865,NA,446,0.002097344770035428,1.7165272673479463e-4,0.18960371793861272,0.013884928525553928,0.49133001517270924,0.2710302959100831
638945e6-1c9b-11f1-809e-3cf011fcb4b7,2022-07-05 12:43:54,-64.36206866666667,49.80899345833333,309.44714285714286,3.8842857142857143,-3.0185714285714287,3.5166666666666666,50.181441495940405,101.8461181403572,152.39936574525208,7.2126,30.269878920019035,30.41392090190769,NA,NA,NA,NA,NA,NA,0.0015834949,0.3576415,4.7222865,NA,449,0.0021676490756160375,1.654498526100778e-4,0.20164912257537576,0.014074599511034054,0.4424369398539193,0.26088314704871307
638945e6-1c9b-11f1-809e-3cf011fcb4b7,2022-07-05 12:43:54,-64.36206866666667,49.80899345833333,309.44714285714286,3.8842857142857143,-3.0185714285714287,3.5166666666666666,50.181441495940405,101.8461181403572,152.39936574525208,7.2126,30.269878920019035,30.41392090190769,NA,NA,NA,NA,NA,NA,0.0015834949,0.3576415,4.7222865,NA,452,0.002237383030095948,1.6833767137660143e-4,0.21207833794621486,0.01410506919958646,0.40007653254143055,0.2484651398490458
638945e6-1c9b-11f1-809e-3cf011fcb4b7,2022-07-05 12:43:54,-64.36206866666667,49.80899345833333,309.44714285714286,3.8842857142857143,-3.0185714285714287,3.5166666666666666,50.181441495940405,101.8461181403572,152.39936574525208,7.2126,30.269878920019035,30.41392090190769,NA,NA,NA,NA,NA,NA,0.0015834949,0.3576415,4.7222865,NA,455,0.0023225154774552097,1.67735001563175e-4,0.2215011999417673,0.01416392407839405,0.36226877950014263,0.23522193818565607
638945e6-1c9b-11f1-809e-3cf011fcb4b7,2022-07-05 12:43:54,-64.36206866666667,49.80899345833333,309.44714285714286,3.8842857142857143,-3.0185714285714287,3.5166666666666666,50.181441495940405,101.8461181403572,152.39936574525208,7.2126,30.269878920019035,30.41392090190769,NA,NA,NA,NA,NA,NA,0.0015834949,0.3576415,4.7222865,NA,458,0.00244469572696598,1.7203181452748136e-4,0.23519249215698754,0.014375694459489548,0.3764017220864757,0.2254610667835793
638945e6-1c9b-11f1-809e-3cf011fcb4b7,2022-07-05 12:43:54,-64.36206866666667,49.80899345833333,309.44714285714286,3.8842857142857143,-3.0185714285714287,3.5166666666666666,50.181441495940405,101.8461181403572,152.39936574525208,7.2126,30.269878920019035,30.41392090190769,NA,NA,NA,NA,NA,NA,0.0015834949,0.3576415,4.7222865,NA,461,0.0025712827130464676,1.7242565540287846e-4,0.24840828871352463,0.014643766187461126,0.3857902320185854,0.2164383599085648
638945e6-1c9b-11f1-809e-3cf011fcb4b7,2022-07-05 12:43:54,-64.36206866666667,49.80899345833333,309.44714285714286,3.8842857142857143,-3.0185714285714287,3.5166666666666666,50.181441495940405,101.8461181403572,152.39936574525208,7.2126,30.269878920019035,30.41392090190769,NA,NA,NA,NA,NA,NA,0.0015834949,0.3576415,4.7222865,NA,464,0.0026929968462123667,1.8172455932278204e-4,0.25985535599749043,0.014882246162510703,0.39498898874794297,0.20888310626590506
638945e6-1c9b-11f1-809e-3cf011fcb4b7,2022-07-05 12:43:54,-64.36206866666667,49.80899345833333,309.44714285714286,3.8842857142857143,-3.0185714285714287,3.5166666666666666,50.181441495940405,101.8461181403572,152.39936574525208,7.2126,30.269878920019035,30.41392090190769,NA,NA,NA,NA,NA,NA,0.0015834949,0.3576415,4.7222865,NA,467,0.0028207140689839386,1.8481675133153114e-4,0.2711329658317159,0.01497675879752422,0.404545609117624,0.19684762401272943
638945e6-1c9b-11f1-809e-3cf011fcb4b7,2022-07-05 12:43:54,-64.36206866666667,49.80899345833333,309.44714285714286,3.8842857142857143,-3.0185714285714287,3.5166666666666666,50.181441495940405,101.8461181403572,152.39936574525208,7.2126,30.269878920019035,30.41392090190769,NA,NA,NA,NA,NA,NA,0.0015834949,0.3576415,4.7222865,NA,470,0.0029599562315527368,1.89299956702556e-4,0.28363218578487326,0.015273779963499172,0.4084674920460977,0.18891949172875402
638945e6-1c9b-11f1-809e-3cf011fcb4b7,2022-07-05 12:43:54,-64.36206866666667,49.80899345833333,309.44714285714286,3.8842857142857143,-3.0185714285714287,3.5166666666666666,50.181441495940405,101.8461181403572,152.39936574525208,7.2126,30.269878920019035,30.41392090190769,NA,NA,NA,NA,NA,NA,0.0015834949,0.3576415,4.7222865,NA,473,0.0030977393592458496,1.951827047440802e-4,0.2992481747465911,0.016303717297152562,0.4088553314869814,0.1857033050764721
638945e6-1c9b-11f1-809e-3cf011fcb4b7,2022-07-05 12:43:54,-64.36206866666667,49.80899345833333,309.44714285714286,3.8842857142857143,-3.0185714285714287,3.5166666666666666,50.181441495940405,101.8461181403572,152.39936574525208,7.2126,30.269878920019035,30.41392090190769,NA,NA,NA,NA,NA,NA,0.0015834949,0.3576415,4.7222865,NA,476,0.003227875920602323,2.0285729079459297e-4,0.31507795163938423,0.01637179176307334,0.4086925278139616,0.17433132759962983
638945e6-1c9b-11f1-809e-3cf011fcb4b7,2022-07-05 12:43:54,-64.36206866666667,49.80899345833333,309.44714285714286,3.8842857142857143,-3.0185714285714287,3.5166666666666666,50.181441495940405,101.8461181403572,152.39936574525208,7.2126,30.269878920019035,30.41392090190769,NA,NA,NA,NA,NA,NA,0.0015834949,0.3576415,4.7222865,NA,479,0.0033563037897449645,2.0836903554174362e-4,0.3290572036221997,0.016943014590793195,0.4151466346772936,0.17161881622529826
638945e6-1c9b-11f1-809e-3cf011fcb4b7,2022-07-05 12:43:54,-64.36206866666667,49.80899345833333,309.44714285714286,3.8842857142857143,-3.0185714285714287,3.5166666666666666,50.181441495940405,101.8461181403572,152.39936574525208,7.2126,30.269878920019035,30.41392090190769,NA,NA,NA,NA,NA,NA,0.0015834949,0.3576415,4.7222865,NA,482,0.003489759262940802,2.166762895397088e-4,0.3362759221070263,0.017457275062450824,0.4138689085274424,0.1630404588810639
638945e6-1c9b-11f1-809e-3cf011fcb4b7,2022-07-05 12:43:54,-64.36206866666667,49.80899345833333,309.44714285714286,3.8842857142857143,-3.0185714285714287,3.5166666666666666,50.181441495940405,101.8461181403572,152.39936574525208,7.2126,30.269878920019035,30.41392090190769,NA,NA,NA,NA,NA,NA,0.0015834949,0.3576415,4.7222865,NA,485,0.003597654486575303,2.2750644323102167e-4,0.3398001353194593,0.017861138225214134,0.41817304729989535,0.1588832230287863
638945e6-1c9b-11f1-809e-3cf011fcb4b7,2022-07-05 12:43:54,-64.36206866666667,49.80899345833333,309.44714285714286,3.8842857142857143,-3.0185714285714287,3.5166666666666666,50.181441495940405,101.8461181403572,152.39936574525208,7.2126,30.269878920019035,30.41392090190769,NA,NA,NA,NA,NA,NA,0.0015834949,0.3576415,4.7222865,NA,488,0.0037104881368258194,2.3148994263809508e-4,0.3466386207983834,0.0179976272493567,0.42447030961620136,0.154785010246832
638945e6-1c9b-11f1-809e-3cf011fcb4b7,2022-07-05 12:43:54,-64.36206866666667,49.80899345833333,309.44714285714286,3.8842857142857143,-3.0185714285714287,3.5166666666666666,50.181441495940405,101.8461181403572,152.39936574525208,7.2126,30.269878920019035,30.41392090190769,NA,NA,NA,NA,NA,NA,0.0015834949,0.3576415,4.7222865,NA,491,0.00382331165926313,2.4146523386913603e-4,0.359709061564351,0.01883243218057942,0.4195526071841904,0.14530129108631223
638945e6-1c9b-11f1-809e-3cf011fcb4b7,2022-07-05 12:43:54,-64.36206866666667,49.80899345833333,309.44714285714286,3.8842857142857143,-3.0185714285714287,3.5166666666666666,50.181441495940405,101.8461181403572,152.39936574525208,7.2126,30.269878920019035,30.41392090190769,NA,NA,NA,NA,NA,NA,0.0015834949,0.3576415,4.7222865,NA,494,0.003921730043708639,2.4774263914192814e-4,0.37280645782156635,0.01956387306264808,0.4068921369212325,0.141233226125351
638945e6-1c9b-11f1-809e-3cf011fcb4b7,2022-07-05 12:43:54,-64.36206866666667,49.80899345833333,309.44714285714286,3.8842857142857143,-3.0185714285714287,3.5166666666666666,50.181441495940405,101.8461181403572,152.39936574525208,7.2126,30.269878920019035,30.41392090190769,NA,NA,NA,NA,NA,NA,0.0015834949,0.3576415,4.7222865,NA,497,0.004011504497098113,2.5633643775673914e-4,0.3805180321871705,0.020630971690247704,0.39186583629924,0.13989724405869858
638945e6-1c9b-11f1-809e-3cf011fcb4b7,2022-07-05 12:43:54,-64.36206866666667,49.80899345833333,309.44714285714286,3.8842857142857143,-3.0185714285714287,3.5166666666666666,50.181441495940405,101.8461181403572,152.39936574525208,7.2126,30.269878920019035,30.41392090190769,NA,NA,NA,NA,NA,NA,0.0015834949,0.3576415,4.7222865,NA,500,0.00411289165655661,2.7847039348587703e-4,0.3856053753210904,0.022302263201023187,0.3922152788461699,0.13499277585081873
638945e6-1c9b-11f1-809e-3cf011fcb4b7,2022-07-05 12:43:54,-64.36206866666667,49.80899345833333,309.44714285714286,3.8842857142857143,-3.0185714285714287,3.5166666666666666,50.181441495940405,101.8461181403572,152.39936574525208,7.2126,30.269878920019035,30.41392090190769,NA,NA,NA,NA,NA,NA,0.0015834949,0.3576415,4.7222865,NA,503,0.004199074066169816,2.799313737590385e-4,0.3919660366623142,0.02240155487720593,0.37708223971995636,0.12911452254516773
638945e6-1c9b-11f1-809e-3cf011fcb4b7,2022-07-05 12:43:54,-64.36206866666667,49.80899345833333,309.44714285714286,3.8842857142857143,-3.0185714285714287,3.5166666666666666,50.181441495940405,101.8461181403572,152.39936574525208,7.2126,30.269878920019035,30.41392090190769,NA,NA,NA,NA,NA,NA,0.0015834949,0.3576415,4.7222865,NA,506,0.0042943950311384975,2.977773934054025e-4,0.40134967609777394,0.023882987404141704,0.37534875027005626,0.12410241364403986
638945e6-1c9b-11f1-809e-3cf011fcb4b7,2022-07-05 12:43:54,-64.36206866666667,49.80899345833333,309.44714285714286,3.8842857142857143,-3.0185714285714287,3.5166666666666666,50.181441495940405,101.8461181403572,152.39936574525208,7.2126,30.269878920019035,30.41392090190769,NA,NA,NA,NA,NA,NA,0.0015834949,0.3576415,4.7222865,NA,509,0.0043661451796396245,3.146154922471114e-4,0.4077837486872536,0.024782676298903194,0.3747071546457857,0.1234144051413531
638945e6-1c9b-11f1-809e-3cf011fcb4b7,2022-07-05 12:43:54,-64.36206866666667,49.80899345833333,309.44714285714286,3.8842857142857143,-3.0185714285714287,3.5166666666666666,50.181441495940405,101.8461181403572,152.39936574525208,7.2126,30.269878920019035,30.41392090190769,NA,NA,NA,NA,NA,NA,0.0015834949,0.3576415,4.7222865,NA,512,0.004444630056124182,3.1578553741375674e-4,0.40810766308748037,0.02548596051004429,0.3718425123022667,0.11980492007813434
638945e6-1c9b-11f1-809e-3cf011fcb4b7,2022-07-05 12:43:54,-64.36206866666667,49.80899345833333,309.44714285714286,3.8842857142857143,-3.0185714285714287,3.5166666666666666,50.181441495940405,101.8461181403572,152.39936574525208,7.2126,30.269878920019035,30.41392090190769,NA,NA,NA,NA,NA,NA,0.0015834949,0.3576415,4.7222865,NA,515,0.004543786549616881,3.25694631448864e-4,0.4080588629086822,0.025770424701978455,0.37881742245435374,0.11562674913868504
638945e6-1c9b-11f1-809e-3cf011fcb4b7,2022-07-05 12:43:54,-64.36206866666667,49.80899345833333,309.44714285714286,3.8842857142857143,-3.0185714285714287,3.5166666666666666,50.181441495940405,101.8461181403572,152.39936574525208,7.2126,30.269878920019035,30.41392090190769,NA,NA,NA,NA,NA,NA,0.0015834949,0.3576415,4.7222865,NA,518,0.004661618862618127,3.460065604115023e-4,0.4144537532594828,0.026468980321131062,0.39429964696608016,0.11303406058849064
638945e6-1c9b-11f1-809e-3cf011fcb4b7,2022-07-05 12:43:54,-64.36206866666667,49.80899345833333,309.44714285714286,3.8842857142857143,-3.0185714285714287,3.5166666666666666,50.181441495940405,101.8461181403572,152.39936574525208,7.2126,30.269878920019035,30.41392090190769,NA,NA,NA,NA,NA,NA,0.0015834949,0.3576415,4.7222865,NA,521,0.004805753892131984,3.6536445011295745e-4,0.428937449101327,0.028217796920938943,0.39365053871073735,0.10935745939297005
638945e6-1c9b-11f1-809e-3cf011fcb4b7,2022-07-05 12:43:54,-64.36206866666667,49.80899345833333,309.44714285714286,3.8842857142857143,-3.0185714285714287,3.5166666666666666,50.181441495940405,101.8461181403572,152.39936574525208,7.2126,30.269878920019035,30.41392090190769,NA,NA,NA,NA,NA,NA,0.0015834949,0.3576415,4.7222865,NA,524,0.004893522224084871,3.797439907110944e-4,0.44230474017177135,0.03028479693195328,0.37568332665048443,0.1087242227610666
638945e6-1c9b-11f1-809e-3cf011fcb4b7,2022-07-05 12:43:54,-64.36206866666667,49.80899345833333,309.44714285714286,3.8842857142857143,-3.0185714285714287,3.5166666666666666,50.181441495940405,101.8461181403572,152.39936574525208,7.2126,30.269878920019035,30.41392090190769,NA,NA,NA,NA,NA,NA,0.0015834949,0.3576415,4.7222865,NA,527,0.004966507198412054,3.924653193868524e-4,0.45333200029492626,0.03172522918822813,0.3665660047456541,0.10270167528856301
638945e6-1c9b-11f1-809e-3cf011fcb4b7,2022-07-05 12:43:54,-64.36206866666667,49.80899345833333,309.44714285714286,3.8842857142857143,-3.0185714285714287,3.5166666666666666,50.181441495940405,101.8461181403572,152.39936574525208,7.2126,30.269878920019035,30.41392090190769,NA,NA,NA,NA,NA,NA,0.0015834949,0.3576415,4.7222865,NA,530,0.00506207201997663,4.063905211139081e-4,0.4642638549108366,0.03380832212488286,0.3530006634100944,0.09806671846555266
638945e6-1c9b-11f1-809e-3cf011fcb4b7,2022-07-05 12:43:54,-64.36206866666667,49.80899345833333,309.44714285714286,3.8842857142857143,-3.0185714285714287,3.5166666666666666,50.181441495940405,101.8461181403572,152.39936574525208,7.2126,30.269878920019035,30.41392090190769,NA,NA,NA,NA,NA,NA,0.0015834949,0.3576415,4.7222865,NA,533,0.005128167970324348,4.193952536635189e-4,0.4727498064082756,0.034398595613376444,0.3433524249992874,0.09603654810176836
638945e6-1c9b-11f1-809e-3cf011fcb4b7,2022-07-05 12:43:54,-64.36206866666667,49.80899345833333,309.44714285714286,3.8842857142857143,-3.0185714285714287,3.5166666666666666,50.181441495940405,101.8461181403572,152.39936574525208,7.2126,30.269878920019035,30.41392090190769,NA,NA,NA,NA,NA,NA,0.0015834949,0.3576415,4.7222865,NA,536,0.005186255133524841,4.3210869666282883e-4,0.47652893393612045,0.0347533770197532,0.33576904043933326,0.09387980293810157
638945e6-1c9b-11f1-809e-3cf011fcb4b7,2022-07-05 12:43:54,-64.36206866666667,49.80899345833333,309.44714285714286,3.8842857142857143,-3.0185714285714287,3.5166666666666666,50.181441495940405,101.8461181403572,152.39936574525208,7.2126,30.269878920019035,30.41392090190769,NA,NA,NA,NA,NA,NA,0.0015834949,0.3576415,4.7222865,NA,539,0.005241517346112195,4.430407456734091e-4,0.478225431051701,0.03593621967510017,0.3220768346133236,0.09186109471622309
638945e6-1c9b-11f1-809e-3cf011fcb4b7,2022-07-05 12:43:54,-64.36206866666667,49.80899345833333,309.44714285714286,3.8842857142857143,-3.0185714285714287,3.5166666666666666,50.181441495940405,101.8461181403572,152.39936574525208,7.2126,30.269878920019035,30.41392090190769,NA,NA,NA,NA,NA,NA,0.0015834949,0.3576415,4.7222865,NA,542,0.005301967534796144,4.464707181166065e-4,0.48249141963300496,0.036737304641692566,0.31848075075556076,0.08714552044389005
638945e6-1c9b-11f1-809e-3cf011fcb4b7,2022-07-05 12:43:54,-64.36206866666667,49.80899345833333,309.44714285714286,3.8842857142857143,-3.0185714285714287,3.5166666666666666,50.181441495940405,101.8461181403572,152.39936574525208,7.2126,30.269878920019035,30.41392090190769,NA,NA,NA,NA,NA,NA,0.0015834949,0.3576415,4.7222865,NA,545,0.00536754949621443,4.466587572633259e-4,0.48740698054027354,0.03694873900350259,0.31472109454069974,0.08724773781487605
638945e6-1c9b-11f1-809e-3cf011fcb4b7,2022-07-05 12:43:54,-64.36206866666667,49.80899345833333,309.44714285714286,3.8842857142857143,-3.0185714285714287,3.5166666666666666,50.181441495940405,101.8461181403572,152.39936574525208,7.2126,30.269878920019035,30.41392090190769,NA,NA,NA,NA,NA,NA,0.0015834949,0.3576415,4.7222865,NA,548,0.005401019800872493,4.5302850256566173e-4,0.49191169528851475,0.03780988780480053,0.31537891575430677,0.08585080330788675
638945e6-1c9b-11f1-809e-3cf011fcb4b7,2022-07-05 12:43:54,-64.36206866666667,49.80899345833333,309.44714285714286,3.8842857142857143,-3.0185714285714287,3.5166666666666666,50.181441495940405,101.8461181403572,152.39936574525208,7.2126,30.269878920019035,30.41392090190769,NA,NA,NA,NA,NA,NA,0.0015834949,0.3576415,4.7222865,NA,551,0.005451400013634863,4.4447206987101995e-4,0.49544930555265254,0.036600268065055515,0.31020555372991543,0.08254732003639546
638945e6-1c9b-11f1-809e-3cf011fcb4b7,2022-07-05 12:43:54,-64.36206866666667,49.80899345833333,309.44714285714286,3.8842857142857143,-3.0185714285714287,3.5166666666666666,50.181441495940405,101.8461181403572,152.39936574525208,7.2126,30.269878920019035,30.41392090190769,NA,NA,NA,NA,NA,NA,0.0015834949,0.3576415,4.7222865,NA,554,0.005527654193395455,4.710694786311506e-4,0.5000461221153223,0.03840343767577038,0.3108699105696472,0.08148463432823021
638945e6-1c9b-11f1-809e-3cf011fcb4b7,2022-07-05 12:43:54,-64.36206866666667,49.80899345833333,309.44714285714286,3.8842857142857143,-3.0185714285714287,3.5166666666666666,50.181441495940405,101.8461181403572,152.39936574525208,7.2126,30.269878920019035,30.41392090190769,NA,NA,NA,NA,NA,NA,0.0015834949,0.3576415,4.7222865,NA,557,0.0056016303487342115,4.6086457781773253e-4,0.5006028687043107,0.03632276620556276,0.3081361306649692,0.08015246598706197
638945e6-1c9b-11f1-809e-3cf011fcb4b7,2022-07-05 12:43:54,-64.36206866666667,49.80899345833333,309.44714285714286,3.8842857142857143,-3.0185714285714287,3.5166666666666666,50.181441495940405,101.8461181403572,152.39936574525208,7.2126,30.269878920019035,30.41392090190769,NA,NA,NA,NA,NA,NA,0.0015834949,0.3576415,4.7222865,NA,560,0.005644480513989128,4.598878369586306e-4,0.5013136937694118,0.03640163574475726,0.3050704920871071,0.07840506436812486
638945e6-1c9b-11f1-809e-3cf011fcb4b7,2022-07-05 12:43:54,-64.36206866666667,49.80899345833333,309.44714285714286,3.8842857142857143,-3.0185714285714287,3.5166666666666666,50.181441495940405,101.8461181403572,152.39936574525208,7.2126,30.269878920019035,30.41392090190769,NA,NA,NA,NA,NA,NA,0.0015834949,0.3576415,4.7222865,NA,563,0.005659916467921186,4.5455977896779066e-4,0.4994991185256824,0.03587975042685502,0.2863583858881099,0.07629506728176669
638945e6-1c9b-11f1-809e-3cf011fcb4b7,2022-07-05 12:43:54,-64.36206866666667,49.80899345833333,309.44714285714286,3.8842857142857143,-3.0185714285714287,3.5166666666666666,50.181441495940405,101.8461181403572,152.39936574525208,7.2126,30.269878920019035,30.41392090190769,NA,NA,NA,NA,NA,NA,0.0015834949,0.3576415,4.7222865,NA,566,0.00568811202309138,4.440819070079621e-4,0.4980374927843072,0.03495707370844047,0.2783894995520507,0.07334788043387704
638945e6-1c9b-11f1-809e-3cf011fcb4b7,2022-07-05 12:43:54,-64.36206866666667,49.80899345833333,309.44714285714286,3.8842857142857143,-3.0185714285714287,3.5166666666666666,50.181441495940405,101.8461181403572,152.39936574525208,7.2126,30.269878920019035,30.41392090190769,NA,NA,NA,NA,NA,NA,0.0015834949,0.3576415,4.7222865,NA,569,0.005682368009214156,4.592655848738914e-4,0.4945303283922968,0.03496323346015218,0.2712215948337199,0.07453314739658391
638945e6-1c9b-11f1-809e-3cf011fcb4b7,2022-07-05 12:43:54,-64.36206866666667,49.80899345833333,309.44714285714286,3.8842857142857143,-3.0185714285714287,3.5166666666666666,50.181441495940405,101.8461181403572,152.39936574525208,7.2126,30.269878920019035,30.41392090190769,NA,NA,NA,NA,NA,NA,0.0015834949,0.3576415,4.7222865,NA,572,0.00566476364703886,4.355207411788056e-4,0.49121854548813926,0.03331215478473818,0.26193705225858566,0.07521909990477171
638945e6-1c9b-11f1-809e-3cf011fcb4b7,2022-07-05 12:43:54,-64.36206866666667,49.80899345833333,309.44714285714286,3.8842857142857143,-3.0185714285714287,3.5166666666666666,50.181441495940405,101.8461181403572,152.39936574525208,7.2126,30.269878920019035,30.41392090190769,NA,NA,NA,NA,NA,NA,0.0015834949,0.3576415,4.7222865,NA,575,0.005608823411025279,4.37622770312306e-4,0.4865804902032162,0.033925709858892844,0.26263449460303834,0.07395483067997662
638945e6-1c9b-11f1-809e-3cf011fcb4b7,2022-07-05 12:43:54,-64.36206866666667,49.80899345833333,309.44714285714286,3.8842857142857143,-3.0185714285714287,3.5166666666666666,50.181441495940405,101.8461181403572,152.39936574525208,7.2126,30.269878920019035,30.41392090190769,NA,NA,NA,NA,NA,NA,0.0015834949,0.3576415,4.7222865,NA,578,0.005510214779356634,4.301522302287015e-4,0.4785241108622992,0.032891316896556874,0.263733038326832,0.07359084844231649
638945e6-1c9b-11f1-809e-3cf011fcb4b7,2022-07-05 12:43:54,-64.36206866666667,49.80899345833333,309.44714285714286,3.8842857142857143,-3.0185714285714287,3.5166666666666666,50.181441495940405,101.8461181403572,152.39936574525208,7.2126,30.269878920019035,30.41392090190769,NA,NA,NA,NA,NA,NA,0.0015834949,0.3576415,4.7222865,NA,581,0.005314571315840092,4.203794800527199e-4,0.4630569323078829,0.0327968506857322,0.2544400262247962,0.07541495264384364
638945e6-1c9b-11f1-809e-3cf011fcb4b7,2022-07-05 12:43:54,-64.36206866666667,49.80899345833333,309.44714285714286,3.8842857142857143,-3.0185714285714287,3.5166666666666666,50.181441495940405,101.8461181403572,152.39936574525208,7.2126,30.269878920019035,30.41392090190769,NA,NA,NA,NA,NA,NA,0.0015834949,0.3576415,4.7222865,NA,584,0.0050548586982912,4.0360288216578235e-4,0.43948485120836067,0.030278577405032592,0.24962868728334764,0.0782619732518918
638945e6-1c9b-11f1-809e-3cf011fcb4b7,2022-07-05 12:43:54,-64.36206866666667,49.80899345833333,309.44714285714286,3.8842857142857143,-3.0185714285714287,3.5166666666666666,50.181441495940405,101.8461181403572,152.39936574525208,7.2126,30.269878920019035,30.41392090190769,NA,NA,NA,NA,NA,NA,0.0015834949,0.3576415,4.7222865,NA,587,0.00475756194572481,3.719752544737087e-4,0.40726180757533126,0.028148551722581294,0.2525220200441253,0.08487729156748172
638945e6-1c9b-11f1-809e-3cf011fcb4b7,2022-07-05 12:43:54,-64.36206866666667,49.80899345833333,309.44714285714286,3.8842857142857143,-3.0185714285714287,3.5166666666666666,50.181441495940405,101.8461181403572,152.39936574525208,7.2126,30.269878920019035,30.41392090190769,NA,NA,NA,NA,NA,NA,0.0015834949,0.3576415,4.7222865,NA,590,0.0043820310674627825,3.399497234484591e-4,0.37047423369028165,0.024962295095975442,0.25276600681046907,0.08809619504305631
638945e6-1c9b-11f1-809e-3cf011fcb4b7,2022-07-05 12:43:54,-64.36206866666667,49.80899345833333,309.44714285714286,3.8842857142857143,-3.0185714285714287,3.5166666666666666,50.181441495940405,101.8461181403572,152.39936574525208,7.2126,30.269878920019035,30.41392090190769,NA,NA,NA,NA,NA,NA,0.0015834949,0.3576415,4.7222865,NA,593,0.003973704086317255,2.8719412627590076e-4,0.3356753537966115,0.020716563570352554,0.2460253618330538,0.10105658186674524
638945e6-1c9b-11f1-809e-3cf011fcb4b7,2022-07-05 12:43:54,-64.36206866666667,49.80899345833333,309.44714285714286,3.8842857142857143,-3.0185714285714287,3.5166666666666666,50.181441495940405,101.8461181403572,152.39936574525208,7.2126,30.269878920019035,30.41392090190769,NA,NA,NA,NA,NA,NA,0.0015834949,0.3576415,4.7222865,NA,596,0.0035396931994581236,2.472048775596681e-4,0.29948739807461444,0.01737776819252163,0.24834628061036979,0.11291520210361299
638945e6-1c9b-11f1-809e-3cf011fcb4b7,2022-07-05 12:43:54,-64.36206866666667,49.80899345833333,309.44714285714286,3.8842857142857143,-3.0185714285714287,3.5166666666666666,50.181441495940405,101.8461181403572,152.39936574525208,7.2126,30.269878920019035,30.41392090190769,NA,NA,NA,NA,NA,NA,0.0015834949,0.3576415,4.7222865,NA,599,0.003173374452678084,2.1697469855442924e-4,0.268930750474709,0.015356157213574816,0.3096460205334761,0.12955994759557668
638945e6-1c9b-11f1-809e-3cf011fcb4b7,2022-07-05 12:43:54,-64.36206866666667,49.80899345833333,309.44714285714286,3.8842857142857143,-3.0185714285714287,3.5166666666666666,50.181441495940405,101.8461181403572,152.39936574525208,7.2126,30.269878920019035,30.41392090190769,NA,NA,NA,NA,NA,NA,0.0015834949,0.3576415,4.7222865,NA,602,0.002868596404697983,1.941142049203762e-4,0.24337050311861969,0.01331986242893049,0.36407566578049333,0.14968532741825077
638945e6-1c9b-11f1-809e-3cf011fcb4b7,2022-07-05 12:43:54,-64.36206866666667,49.80899345833333,309.44714285714286,3.8842857142857143,-3.0185714285714287,3.5166666666666666,50.181441495940405,101.8461181403572,152.39936574525208,7.2126,30.269878920019035,30.41392090190769,NA,NA,NA,NA,NA,NA,0.0015834949,0.3576415,4.7222865,NA,605,0.002651338713664248,1.762150631042181e-4,0.22445400211464106,0.012382238805683976,0.40383696379829714,0.16277070615009126
638945e6-1c9b-11f1-809e-3cf011fcb4b7,2022-07-05 12:43:54,-64.36206866666667,49.80899345833333,309.44714285714286,3.8842857142857143,-3.0185714285714287,3.5166666666666666,50.181441495940405,101.8461181403572,152.39936574525208,7.2126,30.269878920019035,30.41392090190769,NA,NA,NA,NA,NA,NA,0.0015834949,0.3576415,4.7222865,NA,608,0.0024863095630887665,1.6520724035882175e-4,0.20944311937385957,0.011440317261539877,0.39634007645806085,0.1769958011960797
638945e6-1c9b-11f1-809e-3cf011fcb4b7,2022-07-05 12:43:54,-64.36206866666667,49.80899345833333,309.44714285714286,3.8842857142857143,-3.0185714285714287,3.5166666666666666,50.181441495940405,101.8461181403572,152.39936574525208,7.2126,30.269878920019035,30.41392090190769,NA,NA,NA,NA,NA,NA,0.0015834949,0.3576415,4.7222865,NA,611,0.002372486339607378,1.594956426102091e-4,0.19863767395996562,0.011120266822465322,0.37995694936385627,0.18728607179089005
638945e6-1c9b-11f1-809e-3cf011fcb4b7,2022-07-05 12:43:54,-64.36206866666667,49.80899345833333,309.44714285714286,3.8842857142857143,-3.0185714285714287,3.5166666666666666,50.181441495940405,101.8461181403572,152.39936574525208,7.2126,30.269878920019035,30.41392090190769,NA,NA,NA,NA,NA,NA,0.0015834949,0.3576415,4.7222865,NA,614,0.002300444269855329,1.5813871705723477e-4,0.19130863736219564,0.011119594054102296,0.3933960166283631,0.1891564085549646
638945e6-1c9b-11f1-809e-3cf011fcb4b7,2022-07-05 12:43:54,-64.36206866666667,49.80899345833333,309.44714285714286,3.8842857142857143,-3.0185714285714287,3.5166666666666666,50.181441495940405,101.8461181403572,152.39936574525208,7.2126,30.269878920019035,30.41392090190769,NA,NA,NA,NA,NA,NA,0.0015834949,0.3576415,4.7222865,NA,617,0.002228270001564604,1.5206332901921037e-4,0.18528632059537692,0.010535185875283508,0.3951499618846718,0.19463736889639494
638945e6-1c9b-11f1-809e-3cf011fcb4b7,2022-07-05 12:43:54,-64.36206866666667,49.80899345833333,309.44714285714286,3.8842857142857143,-3.0185714285714287,3.5166666666666666,50.181441495940405,101.8461181403572,152.39936574525208,7.2126,30.269878920019035,30.41392090190769,NA,NA,NA,NA,NA,NA,0.0015834949,0.3576415,4.7222865,NA,620,0.0021688565203050797,1.5204438334935502e-4,0.18019712149597672,0.010659950631680962,0.396496782195687,0.1991623889386748
638945e6-1c9b-11f1-809e-3cf011fcb4b7,2022-07-05 12:43:54,-64.36206866666667,49.80899345833333,309.44714285714286,3.8842857142857143,-3.0185714285714287,3.5166666666666666,50.181441495940405,101.8461181403572,152.39936574525208,7.2126,30.269878920019035,30.41392090190769,NA,NA,NA,NA,NA,NA,0.0015834949,0.3576415,4.7222865,NA,623,0.0021393998888751247,1.5104366872367505e-4,0.17665840289843704,0.010657589929822254,0.43517762816793093,0.20216648729433062
638945e6-1c9b-11f1-809e-3cf011fcb4b7,2022-07-05 12:43:54,-64.36206866666667,49.80899345833333,309.44714285714286,3.8842857142857143,-3.0185714285714287,3.5166666666666666,50.181441495940405,101.8461181403572,152.39936574525208,7.2126,30.269878920019035,30.41392090190769,NA,NA,NA,NA,NA,NA,0.0015834949,0.3576415,4.7222865,NA,626,0.002097105614121776,1.5041996765623338e-4,0.1716127737785658,0.010240597421139436,0.44736011198388254,0.19924040338408927
638945e6-1c9b-11f1-809e-3cf011fcb4b7,2022-07-05 12:43:54,-64.36206866666667,49.80899345833333,309.44714285714286,3.8842857142857143,-3.0185714285714287,3.5166666666666666,50.181441495940405,101.8461181403572,152.39936574525208,7.2126,30.269878920019035,30.41392090190769,NA,NA,NA,NA,NA,NA,0.0015834949,0.3576415,4.7222865,NA,629,0.002038011575895468,1.4949556001579245e-4,0.165761098693625,0.010166013543834519,0.4334871394277144,0.21109525198568327
638945e6-1c9b-11f1-809e-3cf011fcb4b7,2022-07-05 12:43:54,-64.36206866666667,49.80899345833333,309.44714285714286,3.8842857142857143,-3.0185714285714287,3.5166666666666666,50.181441495940405,101.8461181403572,152.39936574525208,7.2126,30.269878920019035,30.41392090190769,NA,NA,NA,NA,NA,NA,0.0015834949,0.3576415,4.7222865,NA,632,0.0019776657618725763,1.422018615365582e-4,0.1605008661858997,0.009884660215877741,0.41133692687340684,0.21443372108367614
638945e6-1c9b-11f1-809e-3cf011fcb4b7,2022-07-05 12:43:54,-64.36206866666667,49.80899345833333,309.44714285714286,3.8842857142857143,-3.0185714285714287,3.5166666666666666,50.181441495940405,101.8461181403572,152.39936574525208,7.2126,30.269878920019035,30.41392090190769,NA,NA,NA,NA,NA,NA,0.0015834949,0.3576415,4.7222865,NA,635,0.0019327315442882345,1.4030226625502028e-4,0.15724968070207113,0.009841204505891061,0.4134242635966349,0.2121089835964105
638945e6-1c9b-11f1-809e-3cf011fcb4b7,2022-07-05 12:43:54,-64.36206866666667,49.80899345833333,309.44714285714286,3.8842857142857143,-3.0185714285714287,3.5166666666666666,50.181441495940405,101.8461181403572,152.39936574525208,7.2126,30.269878920019035,30.41392090190769,NA,NA,NA,NA,NA,NA,0.0015834949,0.3576415,4.7222865,NA,638,0.0018954998420593534,1.3485035875285218e-4,0.15469819711698893,0.009374520314058728,0.4059291703383365,0.21388926760175805
638945e6-1c9b-11f1-809e-3cf011fcb4b7,2022-07-05 12:43:54,-64.36206866666667,49.80899345833333,309.44714285714286,3.8842857142857143,-3.0185714285714287,3.5166666666666666,50.181441495940405,101.8461181403572,152.39936574525208,7.2126,30.269878920019035,30.41392090190769,NA,NA,NA,NA,NA,NA,0.0015834949,0.3576415,4.7222865,NA,641,0.0018513324878135986,1.3256953276223347e-4,0.1511968410574546,0.009319425449118646,0.4035972107260892,0.22818489533101374
638945e6-1c9b-11f1-809e-3cf011fcb4b7,2022-07-05 12:43:54,-64.36206866666667,49.80899345833333,309.44714285714286,3.8842857142857143,-3.0185714285714287,3.5166666666666666,50.181441495940405,101.8461181403572,152.39936574525208,7.2126,30.269878920019035,30.41392090190769,NA,NA,NA,NA,NA,NA,0.0015834949,0.3576415,4.7222865,NA,644,0.0017988898714776996,1.3358030525621975e-4,0.1459995554623453,0.008958346640082956,0.3935306910828122,0.22766163858468225
638945e6-1c9b-11f1-809e-3cf011fcb4b7,2022-07-05 12:43:54,-64.36206866666667,49.80899345833333,309.44714285714286,3.8842857142857143,-3.0185714285714287,3.5166666666666666,50.181441495940405,101.8461181403572,152.39936574525208,7.2126,30.269878920019035,30.41392090190769,NA,NA,NA,NA,NA,NA,0.0015834949,0.3576415,4.7222865,NA,647,0.0017264195512265712,1.3081106252170972e-4,0.1390261419508484,0.009135735436236993,0.3505723706682081,0.23863287184224088
638945e6-1c9b-11f1-809e-3cf011fcb4b7,2022-07-05 12:43:54,-64.36206866666667,49.80899345833333,309.44714285714286,3.8842857142857143,-3.0185714285714287,3.5166666666666666,50.181441495940405,101.8461181403572,152.39936574525208,7.2126,30.269878920019035,30.41392090190769,NA,NA,NA,NA,NA,NA,0.0015834949,0.3576415,4.7222865,NA,650,0.0016299406098886807,1.285617856846585e-4,0.12995517673637158,0.008772622301211326,0.3026714063093043,0.2476022516750028
638945e6-1c9b-11f1-809e-3cf011fcb4b7,2022-07-05 12:43:54,-64.36206866666667,49.80899345833333,309.44714285714286,3.8842857142857143,-3.0185714285714287,3.5166666666666666,50.181441495940405,101.8461181403572,152.39936574525208,7.2126,30.269878920019035,30.41392090190769,NA,NA,NA,NA,NA,NA,0.0015834949,0.3576415,4.7222865,NA,653,0.001524797614682246,1.2192634815285248e-4,0.1198013021077465,0.008376419506778287,0.2606040693894518,0.26907674631798056
638945e6-1c9b-11f1-809e-3cf011fcb4b7,2022-07-05 12:43:54,-64.36206866666667,49.80899345833333,309.44714285714286,3.8842857142857143,-3.0185714285714287,3.5166666666666666,50.181441495940405,101.8461181403572,152.39936574525208,7.2126,30.269878920019035,30.41392090190769,NA,NA,NA,NA,NA,NA,0.0015834949,0.3576415,4.7222865,NA,656,0.0014150752179286966,1.1738780989896452e-4,0.11024291446459465,0.007950288491471032,0.24251776249481533,0.2758682825007431
638945e6-1c9b-11f1-809e-3cf011fcb4b7,2022-07-05 12:43:54,-64.36206866666667,49.80899345833333,309.44714285714286,3.8842857142857143,-3.0185714285714287,3.5166666666666666,50.181441495940405,101.8461181403572,152.39936574525208,7.2126,30.269878920019035,30.41392090190769,NA,NA,NA,NA,NA,NA,0.0015834949,0.3576415,4.7222865,NA,659,0.0013391306489222523,1.1280970706687213e-4,0.10497076279253958,0.007745803410001681,0.2888145489294932,0.2919742133655018
638945e6-1c9b-11f1-809e-3cf011fcb4b7,2022-07-05 12:43:54,-64.36206866666667,49.80899345833333,309.44714285714286,3.8842857142857143,-3.0185714285714287,3.5166666666666666,50.181441495940405,101.8461181403572,152.39936574525208,7.2126,30.269878920019035,30.41392090190769,NA,NA,NA,NA,NA,NA,0.0015834949,0.3576415,4.7222865,NA,662,0.0012896322731203898,1.1382689465090072e-4,0.10239097244808051,0.008206482286743729,0.3633990538277806,0.3070375720298056
638945e6-1c9b-11f1-809e-3cf011fcb4b7,2022-07-05 12:43:54,-64.36206866666667,49.80899345833333,309.44714285714286,3.8842857142857143,-3.0185714285714287,3.5166666666666666,50.181441495940405,101.8461181403572,152.39936574525208,7.2126,30.269878920019035,30.41392090190769,NA,NA,NA,NA,NA,NA,0.0015834949,0.3576415,4.7222865,NA,665,0.001270385525859374,1.1889864285409244e-4,0.10186863945005939,0.008884151102856723,0.4451205368966941,0.3181377932426836
638945e6-1c9b-11f1-809e-3cf011fcb4b7,2022-07-05 12:43:54,-64.36206866666667,49.80899345833333,309.44714285714286,3.8842857142857143,-3.0185714285714287,3.5166666666666666,50.181441495940405,101.8461181403572,152.39936574525208,7.2126,30.269878920019035,30.41392090190769,NA,NA,NA,NA,NA,NA,0.0015834949,0.3576415,4.7222865,NA,668,0.0012694870698628374,1.2398819958143583e-4,0.10160269994086854,0.008959523560780292,0.5105900959569614,0.32459643397375676
638945e6-1c9b-11f1-809e-3cf011fcb4b7,2022-07-05 12:43:54,-64.36206866666667,49.80899345833333,309.44714285714286,3.8842857142857143,-3.0185714285714287,3.5166666666666666,50.181441495940405,101.8461181403572,152.39936574525208,7.2126,30.269878920019035,30.41392090190769,NA,NA,NA,NA,NA,NA,0.0015834949,0.3576415,4.7222865,NA,671,0.0012767282161133475,1.313128610109926e-4,0.10195336265923821,0.009623429651504848,0.571999020266943,0.3425155545165991
638945e6-1c9b-11f1-809e-3cf011fcb4b7,2022-07-05 12:43:54,-64.36206866666667,49.80899345833333,309.44714285714286,3.8842857142857143,-3.0185714285714287,3.5166666666666666,50.181441495940405,101.8461181403572,152.39936574525208,7.2126,30.269878920019035,30.41392090190769,NA,NA,NA,NA,NA,NA,0.0015834949,0.3576415,4.7222865,NA,674,0.0012578010863216558,1.2610815883093275e-4,0.09993196045993097,0.009191386621808285,0.5735465205507799,0.33698509046419656
638945e6-1c9b-11f1-809e-3cf011fcb4b7,2022-07-05 12:43:54,-64.36206866666667,49.80899345833333,309.44714285714286,3.8842857142857143,-3.0185714285714287,3.5166666666666666,50.181441495940405,101.8461181403572,152.39936574525208,7.2126,30.269878920019035,30.41392090190769,NA,NA,NA,NA,NA,NA,0.0015834949,0.3576415,4.7222865,NA,677,0.0012457118285481672,1.2334037149043368e-4,0.09832219621821948,0.009153493752433274,0.5476408211502453,0.33727299809378436
638945e6-1c9b-11f1-809e-3cf011fcb4b7,2022-07-05 12:43:54,-64.36206866666667,49.80899345833333,309.44714285714286,3.8842857142857143,-3.0185714285714287,3.5166666666666666,50.181441495940405,101.8461181403572,152.39936574525208,7.2126,30.269878920019035,30.41392090190769,NA,NA,NA,NA,NA,NA,0.0015834949,0.3576415,4.7222865,NA,680,0.00120700502247764,1.2705236213321087e-4,0.09402752298679841,0.009182055468425902,0.4811957697066231,0.35038728864227964
638945e6-1c9b-11f1-809e-3cf011fcb4b7,2022-07-05 12:43:54,-64.36206866666667,49.80899345833333,309.44714285714286,3.8842857142857143,-3.0185714285714287,3.5166666666666666,50.181441495940405,101.8461181403572,152.39936574525208,7.2126,30.269878920019035,30.41392090190769,NA,NA,NA,NA,NA,NA,0.0015834949,0.3576415,4.7222865,NA,683,0.0012056055444024938,1.2673457589348886e-4,0.0901809052848214,0.008856468419441245,0.5332461571842173,0.3679921281136416
638945e6-1c9b-11f1-809e-3cf011fcb4b7,2022-07-05 12:43:54,-64.36206866666667,49.80899345833333,309.44714285714286,3.8842857142857143,-3.0185714285714287,3.5166666666666666,50.181441495940405,101.8461181403572,152.39936574525208,7.2126,30.269878920019035,30.41392090190769,NA,NA,NA,NA,NA,NA,0.0015834949,0.3576415,4.7222865,NA,686,0.0011679044111097085,1.2445954011202208e-4,0.08333598560941863,0.00827709585716923,0.5153411303893737,0.3607115049861466
638945e6-1c9b-11f1-809e-3cf011fcb4b7,2022-07-05 12:43:54,-64.36206866666667,49.80899345833333,309.44714285714286,3.8842857142857143,-3.0185714285714287,3.5166666666666666,50.181441495940405,101.8461181403572,152.39936574525208,7.2126,30.269878920019035,30.41392090190769,NA,NA,NA,NA,NA,NA,0.0015834949,0.3576415,4.7222865,NA,689,0.0011343415281494034,1.2179542838877164e-4,0.07887772584377625,0.007983862476650191,0.5490896517908483,0.3700221965113668
638945e6-1c9b-11f1-809e-3cf011fcb4b7,2022-07-05 12:43:54,-64.36206866666667,49.80899345833333,309.44714285714286,3.8842857142857143,-3.0185714285714287,3.5166666666666666,50.181441495940405,101.8461181403572,152.39936574525208,7.2126,30.269878920019035,30.41392090190769,NA,NA,NA,NA,NA,NA,0.0015834949,0.3576415,4.7222865,NA,692,0.0010941729643716863,1.2500869798276468e-4,0.0763170060011644,0.008256116332030727,0.6096541931319773,0.38562852459253855
638945e6-1c9b-11f1-809e-3cf011fcb4b7,2022-07-05 12:43:54,-64.36206866666667,49.80899345833333,309.44714285714286,3.8842857142857143,-3.0185714285714287,3.5166666666666666,50.181441495940405,101.8461181403572,152.39936574525208,7.2126,30.269878920019035,30.41392090190769,NA,NA,NA,NA,NA,NA,0.0015834949,0.3576415,4.7222865,NA,695,0.00101671157925944,1.1984085105437621e-4,0.0721926262411607,0.00807012470663081,0.6015158349735117,0.40126247242370056
638945e6-1c9b-11f1-809e-3cf011fcb4b7,2022-07-05 12:43:54,-64.36206866666667,49.80899345833333,309.44714285714286,3.8842857142857143,-3.0185714285714287,3.5166666666666666,50.181441495940405,101.8461181403572,152.39936574525208,7.2126,30.269878920019035,30.41392090190769,NA,NA,NA,NA,NA,NA,0.0015834949,0.3576415,4.7222865,NA,698,9.488024928600585e-4,1.1754411187656048e-4,0.06833016075785425,0.007915557904471796,0.6567288706416246,0.42002441591771383
638945e6-1c9b-11f1-809e-3cf011fcb4b7,2022-07-05 12:43:54,-64.36206866666667,49.80899345833333,309.44714285714286,3.8842857142857143,-3.0185714285714287,3.5166666666666666,50.181441495940405,101.8461181403572,152.39936574525208,7.2126,30.269878920019035,30.41392090190769,NA,NA,NA,NA,NA,NA,0.0015834949,0.3576415,4.7222865,NA,701,8.626198021400593e-4,1.1317331336221367e-4,0.06254514124637929,0.007869114946736396,0.6608876087329179,0.45456301527785
638945e6-1c9b-11f1-809e-3cf011fcb4b7,2022-07-05 12:43:54,-64.36206866666667,49.80899345833333,309.44714285714286,3.8842857142857143,-3.0185714285714287,3.5166666666666666,50.181441495940405,101.8461181403572,152.39936574525208,7.2126,30.269878920019035,30.41392090190769,NA,NA,NA,NA,NA,NA,0.0015834949,0.3576415,4.7222865,NA,704,7.775507067099958e-4,1.1106016555604299e-4,0.05656126032651217,0.007762858940980227,0.6712428116532825,0.48273442976962894
638945e6-1c9b-11f1-809e-3cf011fcb4b7,2022-07-05 12:43:54,-64.36206866666667,49.80899345833333,309.44714285714286,3.8842857142857143,-3.0185714285714287,3.5166666666666666,50.181441495940405,101.8461181403572,152.39936574525208,7.2126,30.269878920019035,30.41392090190769,NA,NA,NA,NA,NA,NA,0.0015834949,0.3576415,4.7222865,NA,707,7.335914840258066e-4,1.1236142210959634e-4,0.05369038674658708,0.007998145629091933,0.835755490206022,0.516513670242279
638945e6-1c9b-11f1-809e-3cf011fcb4b7,2022-07-05 12:43:54,-64.36206866666667,49.80899345833333,309.44714285714286,3.8842857142857143,-3.0185714285714287,3.5166666666666666,50.181441495940405,101.8461181403572,152.39936574525208,7.2126,30.269878920019035,30.41392090190769,NA,NA,NA,NA,NA,NA,0.0015834949,0.3576415,4.7222865,NA,710,6.367349281863851e-4,1.0197198954322034e-4,0.04617474528794391,0.007224452096034953,0.7905601266457829,0.5458530379589147
638945e6-1c9b-11f1-809e-3cf011fcb4b7,2022-07-05 12:43:54,-64.36206866666667,49.80899345833333,309.44714285714286,3.8842857142857143,-3.0185714285714287,3.5166666666666666,50.181441495940405,101.8461181403572,152.39936574525208,7.2126,30.269878920019035,30.41392090190769,NA,NA,NA,NA,NA,NA,0.0015834949,0.3576415,4.7222865,NA,713,5.867123014257971e-4,1.0330545316745166e-4,0.04105860647228471,0.00709570341991248,0.9715587623966027,0.6209629865950984
638945e6-1c9b-11f1-809e-3cf011fcb4b7,2022-07-05 12:43:54,-64.36206866666667,49.80899345833333,309.44714285714286,3.8842857142857143,-3.0185714285714287,3.5166666666666666,50.181441495940405,101.8461181403572,152.39936574525208,7.2126,30.269878920019035,30.41392090190769,NA,NA,NA,NA,NA,NA,0.0015834949,0.3576415,4.7222865,NA,716,5.351045929910083e-4,1.0086380954503263e-4,0.03533535337804832,0.006555750790869746,1.0999017519230758,0.6416428105412317
638945e6-1c9b-11f1-809e-3cf011fcb4b7,2022-07-05 12:43:54,-64.36206866666667,49.80899345833333,309.44714285714286,3.8842857142857143,-3.0185714285714287,3.5166666666666666,50.181441495940405,101.8461181403572,152.39936574525208,7.2126,30.269878920019035,30.41392090190769,NA,NA,NA,NA,NA,NA,0.0015834949,0.3576415,4.7222865,NA,719,4.7374556128173693e-4,9.014101984569081e-5,0.029825953679663238,0.005635157727221469,1.2460779792835273,0.6672724093875775
638945e6-1c9b-11f1-809e-3cf011fcb4b7,2022-07-05 12:43:54,-64.36206866666667,49.80899345833333,309.44714285714286,3.8842857142857143,-3.0185714285714287,3.5166666666666666,50.181441495940405,101.8461181403572,152.39936574525208,7.2126,30.269878920019035,30.41392090190769,NA,NA,NA,NA,NA,NA,0.0015834949,0.3576415,4.7222865,NA,722,4.181231021896052e-4,8.550228235965735e-5,0.0256272235761632,0.00515952621095125,1.3924163037552395,0.7080697946834645
638945e6-1c9b-11f1-809e-3cf011fcb4b7,2022-07-05 12:43:54,-64.36206866666667,49.80899345833333,309.44714285714286,3.8842857142857143,-3.0185714285714287,3.5166666666666666,50.181441495940405,101.8461181403572,152.39936574525208,7.2126,30.269878920019035,30.41392090190769,NA,NA,NA,NA,NA,NA,0.0015834949,0.3576415,4.7222865,NA,725,3.600332350962616e-4,8.07160951805683e-5,0.02196801096781035,0.0048737951749436865,1.5065325264042755,0.7670475820067439
638945e6-1c9b-11f1-809e-3cf011fcb4b7,2022-07-05 12:43:54,-64.36206866666667,49.80899345833333,309.44714285714286,3.8842857142857143,-3.0185714285714287,3.5166666666666666,50.181441495940405,101.8461181403572,152.39936574525208,7.2126,30.269878920019035,30.41392090190769,NA,NA,NA,NA,NA,NA,0.0015834949,0.3576415,4.7222865,NA,728,3.428082984828806e-4,7.500855522215875e-5,0.021181967997559538,0.004551035216161867,1.9394475995670701,0.7489636347368438
638945e6-1c9b-11f1-809e-3cf011fcb4b7,2022-07-05 12:43:54,-64.36206866666667,49.80899345833333,309.44714285714286,3.8842857142857143,-3.0185714285714287,3.5166666666666666,50.181441495940405,101.8461181403572,152.39936574525208,7.2126,30.269878920019035,30.41392090190769,NA,NA,NA,NA,NA,NA,0.0015834949,0.3576415,4.7222865,NA,731,2.7616339903685126e-4,6.732873284721984e-5,0.017518221420664476,0.004240572180762541,1.921447561680815,0.8274003915384152
638945e6-1c9b-11f1-809e-3cf011fcb4b7,2022-07-05 12:43:54,-64.36206866666667,49.80899345833333,309.44714285714286,3.8842857142857143,-3.0185714285714287,3.5166666666666666,50.181441495940405,101.8461181403572,152.39936574525208,7.2126,30.269878920019035,30.41392090190769,NA,NA,NA,NA,NA,NA,0.0015834949,0.3576415,4.7222865,NA,734,1.9670790471069152e-4,4.66883819694491e-5,0.012855726693544407,0.0030163979021909306,1.4851521781934451,0.9103648133085174
638945e6-1c9b-11f1-809e-3cf011fcb4b7,2022-07-05 12:43:54,-64.36206866666667,49.80899345833333,309.44714285714286,3.8842857142857143,-3.0185714285714287,3.5166666666666666,50.181441495940405,101.8461181403572,152.39936574525208,7.2126,30.269878920019035,30.41392090190769,NA,NA,NA,NA,NA,NA,0.0015834949,0.3576415,4.7222865,NA,737,3.1444726023371005e-4,9.187414731658175e-5,0.021006909320226995,0.006078652285518876,3.522077557567783,1.2319627717927224
638945e6-1c9b-11f1-809e-3cf011fcb4b7,2022-07-05 12:43:54,-64.36206866666667,49.80899345833333,309.44714285714286,3.8842857142857143,-3.0185714285714287,3.5166666666666666,50.181441495940405,101.8461181403572,152.39936574525208,7.2126,30.269878920019035,30.41392090190769,NA,NA,NA,NA,NA,NA,0.0015834949,0.3576415,4.7222865,NA,740,2.3051505917981815e-4,5.4326930595940986e-5,0.015610826552906127,0.0036626195824758694,2.761198240565541,0.8089770559632402
638945e6-1c9b-11f1-809e-3cf011fcb4b7,2022-07-05 12:43:54,-64.36206866666667,49.80899345833333,309.44714285714286,3.8842857142857143,-3.0185714285714287,3.5166666666666666,50.181441495940405,101.8461181403572,152.39936574525208,7.2126,30.269878920019035,30.41392090190769,NA,NA,NA,NA,NA,NA,0.0015834949,0.3576415,4.7222865,NA,743,1.98076376786446e-4,6.301593256536264e-5,0.013552701559750116,0.004304913933471007,2.583765633997152,1.1479004794231338
638945e6-1c9b-11f1-809e-3cf011fcb4b7,2022-07-05 12:43:54,-64.36206866666667,49.80899345833333,309.44714285714286,3.8842857142857143,-3.0185714285714287,3.5166666666666666,50.181441495940405,101.8461181403572,152.39936574525208,7.2126,30.269878920019035,30.41392090190769,NA,NA,NA,NA,NA,NA,0.0015834949,0.3576415,4.7222865,NA,746,1.9530322975573944e-4,7.32883284811312e-5,0.013422520576012273,0.005006063161708374,2.8452071666104723,1.3733189254128024
638945e6-1c9b-11f1-809e-3cf011fcb4b7,2022-07-05 12:43:54,-64.36206866666667,49.80899345833333,309.44714285714286,3.8842857142857143,-3.0185714285714287,3.5166666666666666,50.181441495940405,101.8461181403572,152.39936574525208,7.2126,30.269878920019035,30.41392090190769,NA,NA,NA,NA,NA,NA,0.0015834949,0.3576415,4.7222865,NA,749,0.00025645775283697334,9.124815334588635e-5,0.017505944357551574,0.006155969110205885,3.677781973478833,1.2784391014563008
